[
  { "city": "Delhi",          "lat": 28.66, "lon": 77.23, "pm25": 92 },
  { "city": "Beijing",        "lat": 39.90, "lon": 116.40, "pm25": 78 },
  { "city": "Lahore",         "lat": 31.55, "lon": 74.34, "pm25": 85 },
  { "city": "Mexico City",    "lat": 19.43, "lon": -99.13, "pm25": 41 },
  { "city": "Los Angeles",    "lat": 34.05, "lon": -118.25, "pm25": 23 },
  { "city": "London",         "lat": 51.51, "lon": -0.13, "pm25": 14 },
  { "city": "Sydney",         "lat": -33.86, "lon": 151.20, "pm25": 8 },
  { "city": "Tokyo",          "lat": 35.68, "lon": 139.76, "pm25": 13 },
  { "city": "Johannesburg",   "lat": -26.20, "lon": 28.04, "pm25": 27 },
  { "city": "Paris",          "lat": 48.85, "lon": 2.35, "pm25": 15 }
]
